监测点编码,监测点名称,城市,经度,纬度
1462A,高压开关厂,西安,108.882,34.2749
1463A,兴庆小区,西安,108.993,34.2629
1464A,纺织城,西安,109.06,34.2572
1465A,小寨,西安,108.94,34.2324
1466A,市人民体育场,西安,108.954,34.2713
1467A,高新西区,西安,108.883,34.2303
1468A,经开区,西安,108.935,34.3474
1469A,长安区,西安,108.906,34.1546
1470A,阎良区,西安,109.2,34.6575
1471A,临潼区,西安,109.2186,34.3731
1472A,草滩,西安,108.869,34.378
1473A,曲江文化产业集团,西安,108.985,34.1978
1474A,广运潭,西安,109.043,34.3274
